{"type":"FeatureCollection","features": [ {"type": "Feature","geometry":{"type":"Point","coordinates":[-0.1052726,51.2948532992017]},"properties": {"title":"Coal Tax Post","historic":"boundary_stone","icon":"monument-15","distance":"1.1764579E7"}}, {"type": "Feature","geometry":{"type":"Point","coordinates":[-0.1002088,51.3028787992005]},"properties": {"title":"RAF Kenley Tribute","historic":"memorial","icon":"monument-15","distance":"1.1765477E7"}}, {"type": "Feature","geometry":{"type":"Point","coordinates":[-0.1572433,51.3065731991999]},"properties": {"title":"Coal Tax Post","historic":"boundary_stone","icon":"monument-15","distance":"1.176583E7"}}, {"type": "Feature","geometry":{"type":"Point","coordinates":[-0.1365335,51.3065428991999]},"properties": {"title":"Millenium Cairn","historic":"monument","icon":"monument-15","distance":"1.1765848E7"}}, {"type": "Feature","geometry":{"type":"Point","coordinates":[0.0726817,51.3187504991981]},"properties": {"title":"Harry Relph","historic":"memorial","icon":"monument-15","distance":"1.176743E7"}}, {"type": "Feature","geometry":{"type":"Point","coordinates":[0.0528395,51.3311334991963]},"properties": {"title":"The Wormstone","historic":"archaeological_site","icon":"monument-15","distance":"1.1768784E7"}}, {"type": "Feature","geometry":{"type":"Point","coordinates":[-0.1377964,51.3336873991959]},"properties": {"title":"Coulsdon & Purley Village Green","historic":"memorial","icon":"monument-15","distance":"1.1768864E7"}}, {"type": "Feature","geometry":{"type":"Point","coordinates":[-0.1359264,51.3366848991954]},"properties": {"title":"Promenade Du Verdun War Memorial","historic":"memorial","icon":"monument-15","distance":"1.1769199E7"}}, {"type": "Feature","geometry":{"type":"Point","coordinates":[-0.0763606,51.3365331991955]},"properties": {"title":"Sanderstead War Memorial","historic":"memorial","icon":"monument-15","distance":"1.1769243E7"}}, {"type": "Feature","geometry":{"type":"Point","coordinates":[0.1103918,51.3387587991951]},"properties": {"title":"Bird Bath of the Ages","historic":"monument","icon":"monument-15","distance":"1.1769698E7"}}]}